"장소유형코드",대상시설명,시도명,시군구명,시군구코드,소재지도로명주소,소재지지번주소,위도,경도,제한속도,관리기관명,관리기관전화번호,관할경찰서명,CCTV설치여부,CCTV설치대수,보호구역도로폭,데이터기준일자
1,서 대 문 노인종합복지관,서울특별시,서대문구,11410,서울특별시 서대문구 독립문로8길 57,서울특별시 서대문구 천연동 117-3,37.56800449,126.9591178,30,서대문구청,02-330-1746,서대문경찰서,Y,2,11,2020-09-23
1,서 대 문 노인전문요양센터,서울특별시,서대문구,11410,서울특별시 서대문구 홍지문2길 59,서울특별시 서대문구 홍은동 4,37.59828213,126.955908,30,서대문구청,02-330-1746,서대문경찰서,N,0,25,2020-09-23
1,실버스토리,서울특별시,서대문구,11410,서울특별시 서대문구 모래내로330,서울특별시 서대문구 홍은동 275-59,37.579721,126.9337441,30,서대문구청,02-330-1746,서대문경찰서,Y,1,25,2020-09-23
1,연희노인여가복지시설,서울특별시,서대문구,11410,서울특별시 서대문구 홍제천로2길 111,서울특별시 서대문구 연희동 519-127,37.57224104,126.923577,30,서대문구청,02-330-1746,서대문경찰서,Y,1,5,2020-09-23
1,연희시니어스,서울특별시,서대문구,11410,서울특별시 서대문구 연희로31길 8-7,서울특별시 서대문구 연희동 151-161,37.576337,126.9348058,30,서대문구청,02-330-1746,서대문경찰서,Y,2,5,2020-09-23
